{
  "academic": [
    {
      "lat": 31.2524269616594,
      "lng": 75.70253044336381,
      "location": "block 25"
    },
    {
      "lat": 31.25242020168273,
      "lng": 75.70278636360558,
      "location": "block 26"
    },
    {
      "lat": 31.252460920360136,
      "lng": 75.7033281585063,
      "location": "block 27"
    },
    {
      "lat": 31.252445650858803,
      "lng": 75.70364966322096,
      "location": "block 28"
    },
    {
      "lat": 31.252415111845703,
      "lng": 75.704096197531,
      "location": "block 29"
    },
    {
      "lat": 31.252389662662026,
      "lng": 75.70453677799973,
      "location": "block 30"
    },
    {
      "lat": 31.252201338482738,
      "lng": 75.70458440835911,
      "location": "block 31"
    },
    {
      "lat": 31.251834868746215,
      "lng": 75.7046141773097,
      "location": "block 32"
    },
    {
      "lat": 31.25177888018899,
      "lng": 75.70459036214922,
      "location": "block 33"
    },
    {
      "lat": 31.251422588592348,
      "lng": 75.70489995923535,
      "location": "block 34"
    },
    {
      "lat": 31.25221660803114,
      "lng": 75.70323885166626,
      "location": "block 38"
    },
    {
      "lat": 31.251794149805686,
      "lng": 75.70367347834485,
      "location": "block 37"
    },
    {
      "lat": 31.25164654346864,
      "lng": 75.7041140589026,
      "location": "block 36"
    },
    {
      "lat": 31.258776086563717,
      "lng": 75.7090615206157,
      "location": "fashion"
    },
    { "lat": 31.257125227958618, "lng": 75.70801009478461, "location": "arch" },
    {
      "lat": 31.25780391777158,
      "lng": 75.70673336329142,
      "location": "lit(pharma) block 5"
    },
    {
      "lat": 31.256953261856648,
      "lng": 75.70690502482014,
      "location": "lit(pharam) block 7"
    }
  ],
  "banks": [
    {
      "lat": 31.25847113849504,
      "lng": 75.7083265954623,
      "location": "sbi atm(1)"
    },
    {
      "lat": 31.258106575190165,
      "lng": 75.70769359415107,
      "location": "pnb atm(1)"
    }
  ],
  "foodCourt": [
    {
      "lat": 31.257707617488794,
      "lng": 75.70807446787121,
      "location": "food court 1"
    }
  ],
  "administration": [
    {
      "lat": 31.261230539005286,
      "lng": 75.70685674496812,
      "location": "LPU main gate"
    },
    {
      "lat": 31.258205167949995,
      "lng": 75.7076882296804,
      "location": "Baldev Raj mittal auditorium"
    },
    {
      "lat": 31.259830786724404,
      "lng": 75.70610036207047,
      "location": "main parking (1)"
    },
    {
      "lat": 31.258195996506434,
      "lng": 75.7068969780633,
      "location": "uni hospital"
    }
  ]
}
